city_id,City,Cloudiness,Country,Date,Humidity,Lat,Lng,Max Temp,Wind Speed
0,faanui,21,PF,1570153552,80,-16.48,-151.75,298.836,7.25
1,ushuaia,40,AR,1570153588,98,-54.81,-68.31,281.15,8.2
2,mahebourg,16,MU,1570153633,65,-20.41,57.7,295.37,0.45
3,chuy,100,UY,1570153622,87,-33.69,-53.46,286.906,7.9
4,oriximina,63,BR,1570153765,68,-1.77,-55.87,300.156,2.04
5,mataura,100,NZ,1570153540,58,-46.19,168.86,289.82,5.81
6,butaritari,100,KI,1570153692,76,3.07,172.79,300.376,4.61
7,padang,94,ID,1570153555,83,-0.92,100.36,298.706,4.44
8,port elizabeth,90,US,1570153768,93,39.31,-74.98,294.82,1.5
9,ribnitz-damgarten,75,DE,1570153768,93,54.24,12.43,280.15,4.06
10,bredasdorp,94,ZA,1570153656,67,-34.53,20.04,287.15,5.1
11,busselton,75,AU,1570153540,63,-33.64,115.35,288.71,11.93
12,kapaa,75,US,1570153770,70,22.08,-159.32,304.15,9.3
13,san andres,0,PH,1570153771,55,13.32,122.68,304.656,1.4
14,el alto,75,BO,1570153654,75,-16.5,-68.19,279.15,5.7
15,east london,3,ZA,1570153548,94,-33.02,27.91,285.586,1.94
16,carbonia,0,IT,1570153773,87,39.17,8.53,289.15,3.6
17,karatau,1,KZ,1570153774,88,43.18,70.46,282.04,1.58
18,lodingen,18,NO,1570153774,74,68.41,16.0,274.15,1.0
19,severo-kurilsk,100,RU,1570153776,76,50.68,156.12,278.726,6.73
20,cape town,20,ZA,1570153615,82,-33.93,18.42,288.71,3.6
21,saint george,40,GR,1570153505,68,39.45,22.34,291.15,3.6
22,shatsk,50,RU,1570153778,88,54.03,41.71,284.236,5.84
23,strezhevoy,75,RU,1570153556,93,60.73,77.6,281.15,4.0
24,vitim,100,RU,1570153779,97,59.44,112.57,276.006,4.31
25,airai,0,TL,1570153596,34,-8.93,125.41,307.006,1.27
26,provideniya,75,RU,1570153653,86,64.42,-173.23,278.15,8.0
27,hilo,1,US,1570153781,55,19.71,-155.08,304.15,3.1
28,mattru,100,SL,1570153781,95,7.62,-11.83,296.556,0.67
29,tura,100,RU,1570153782,96,64.27,100.22,276.296,2.58
30,cabo san lucas,40,MX,1570153681,74,22.89,-109.91,301.15,3.6
31,vaini,75,IN,1570153557,100,15.34,74.49,293.15,0.6
32,shetpe,0,KZ,1570153787,35,44.14,52.16,287.286,4.22
33,puerto ayora,100,EC,1570153787,94,-0.74,-90.35,292.59,1.79
34,peniche,90,PT,1570153787,100,39.36,-9.38,292.15,1.5
35,boende,100,CD,1570153788,99,-0.28,20.88,293.216,0.14
36,kavieng,57,PG,1570153788,70,-2.57,150.8,302.116,4.4
37,ribeira grande,28,PT,1570153789,80,38.52,-28.7,294.526,10.51
38,imbituba,75,BR,1570153704,82,-28.24,-48.67,293.15,2.6
39,dingle,0,PH,1570153790,61,11.0,122.67,303.556,1.63
40,punta arenas,40,CL,1570153791,79,-53.16,-70.91,279.15,8.7
41,porto novo,20,BR,1570153791,77,-23.68,-45.44,290.15,2.1
42,rikitea,67,PF,1570153533,79,-23.12,-134.97,293.906,10.59
43,aransas pass,40,US,1570153792,70,27.91,-97.15,302.15,7.7
44,svetlaya,100,RU,1570153793,96,46.54,138.33,277.196,2.72
45,vila franca do campo,40,PT,1570153793,73,37.72,-25.43,295.37,3.1
46,cidreira,100,BR,1570153634,92,-30.17,-50.22,291.016,5.89
47,lengshuitan,0,CN,1570153795,37,26.41,111.6,306.236,3.24
48,georgetown,20,GY,1570153762,83,6.8,-58.16,300.15,2.1
49,lebu,0,ET,1570153797,89,8.96,38.73,283.446,1.1
50,albany,90,US,1570153771,87,42.65,-73.75,283.15,4.1
51,hobart,75,AU,1570153512,44,-42.88,147.33,287.59,5.1
52,khatanga,0,RU,1570153799,67,71.98,102.47,269.336,6.02
53,buenos aires,90,AR,1570153503,82,-34.61,-58.44,286.15,10.3
54,bosobolo,97,CD,1570153801,97,4.19,19.88,293.206,1.42
55,fortuna,1,US,1570153803,76,40.6,-124.16,287.59,4.1
56,bereda,90,ES,1570153805,93,43.27,-7.54,290.93,1.0
57,vorukh,0,KG,1570153806,42,39.85,70.57,287.116,0.15
58,codrington,0,AU,1570153807,30,-28.95,153.24,301.15,2.1
59,ponta do sol,0,BR,1570153696,50,-20.63,-46.0,293.056,4.66
60,vizinga,100,RU,1570153807,96,61.08,50.08,273.916,4.3
61,hermanus,100,ZA,1570153527,81,-34.42,19.24,288.15,10.22
62,avarua,100,CK,1570153777,65,-21.21,-159.78,299.15,3.6
63,ilulissat,100,GL,1570153810,31,69.22,-51.1,282.15,8.2
64,san patricio,77,PY,1570153810,93,-26.98,-56.83,293.826,1.0
65,klaksvik,100,FO,1570153595,70,62.23,-6.59,280.15,4.6
66,gornyy,99,RU,1570153812,84,51.76,48.54,285.036,3.98
67,shu,50,KZ,1570153812,39,43.6,73.76,286.986,0.35
68,victoria,75,BN,1570153813,83,5.28,115.24,300.15,1.0
69,fairburn,90,GB,1570153814,93,53.74,-1.28,283.71,2.1
70,harper,1,US,1570153702,53,30.3,-99.24,300.15,3.94
71,padilla,40,CO,1570153815,83,3.23,-76.31,294.15,2.1
72,nanortalik,100,GL,1570153601,77,60.14,-45.24,277.636,0.73
73,tuktoyaktuk,90,CA,1570153564,100,69.44,-133.03,275.15,3.6
74,rio grande,100,BR,1570153779,95,-32.03,-52.1,287.676,5.5
75,pastavy,59,BY,1570153818,95,55.11,26.84,279.106,3.67
76,clyde river,90,CA,1570153737,94,70.47,-68.59,274.15,5.1
77,baoqing,79,CN,1570153819,57,46.32,132.2,282.066,6.01
78,ormara,2,PK,1570153819,82,25.21,64.64,299.806,4.29
79,hasaki,40,JP,1570153609,94,35.73,140.83,298.15,7.2
80,balikpapan,100,ID,1570153820,85,-1.24,116.86,299.336,1.6
81,saint-philippe,90,CA,1570153821,70,45.36,-73.48,281.48,3.6
82,norman wells,75,CA,1570153796,81,65.28,-126.83,279.15,3.6
83,tapah,75,MY,1570153822,88,4.2,101.26,298.15,1.0
84,namibe,13,AO,1570153822,78,-15.19,12.15,291.846,3.3
85,contamana,7,PE,1570153823,87,-7.35,-75.01,294.506,1.66
86,port alfred,0,ZA,1570153806,83,-33.59,26.89,285.93,0.89
87,hualmay,93,PE,1570153826,91,-11.1,-77.61,289.496,7.66
88,atuona,0,PF,1570153826,78,-9.8,-139.03,299.816,7.27
89,castro,0,CL,1570153644,81,-42.48,-73.76,279.15,3.6
90,changji,38,CN,1570153827,41,32.07,116.17,304.406,2.17
91,vao,100,EE,1570153635,87,59.1,26.19,276.976,4.54
92,yellowknife,20,CA,1570153549,66,62.45,-114.38,282.15,3.6
93,arraial do cabo,0,BR,1570153602,88,-22.97,-42.02,294.376,7.74
94,mecca,0,SA,1570153749,81,21.43,39.83,299.686,1.89
95,bethel,90,US,1570153629,87,60.79,-161.76,282.15,7.2
96,qaanaaq,80,GL,1570153773,59,77.48,-69.36,270.816,3.17
97,phan thiet,64,VN,1570153831,66,10.93,108.1,302.616,1.61
98,flinders,75,AU,1570153827,68,-34.58,150.85,305.93,7.7
99,luderitz,0,NA,1570153647,73,-26.65,15.16,286.426,9.58
100,cameron park,1,US,1570153834,29,38.68,-120.99,297.15,5.7
101,thompson,5,CA,1570153610,74,55.74,-97.86,276.15,1.0
102,mobaye,100,CF,1570153835,96,4.33,21.18,291.206,0.51
103,port hawkesbury,75,CA,1570153836,80,45.62,-61.36,282.04,1.5
104,hailun,32,CN,1570153837,32,47.46,126.97,281.196,6.03
105,batemans bay,35,AU,1570153837,73,-35.71,150.18,295.37,1.79
106,banda aceh,85,ID,1570153837,75,5.56,95.32,300.226,1.52
107,mar del plata,0,AR,1570153648,48,-46.43,-67.52,282.086,7.05
108,kedrovyy,0,RU,1570153838,80,56.17,91.82,274.15,3.42
109,saskylakh,0,RU,1570153839,80,71.97,114.09,265.106,0.8
110,angoche,60,MZ,1570153840,85,-16.23,39.91,296.186,1.72
111,piacabucu,26,BR,1570153841,82,-10.41,-36.43,297.326,5.86
112,yar-sale,58,RU,1570153841,82,66.83,70.83,274.306,6.77
113,shar,100,NG,1570153842,96,7.3,8.73,295.796,1.54
114,toktogul,31,KG,1570153843,99,41.87,72.95,283.15,0.27
115,pampierstad,0,ZA,1570153844,21,-27.78,24.69,283.796,3.51
116,bintulu,75,MY,1570153846,94,3.17,113.03,299.15,2.1
117,eloi mendes,0,BR,1570153846,68,-21.61,-45.57,291.106,2.34
118,valdivia,0,CL,1570153847,81,-39.81,-73.25,282.15,1.5
119,grindavik,90,IS,1570153602,87,63.84,-22.43,282.15,14.4
120,redlands,1,US,1570153840,18,34.06,-117.19,300.15,3.58
121,tooele,1,US,1570153623,66,40.53,-112.3,289.15,2.1
122,nassau,0,AT,1570153848,100,46.81,15.34,277.59,0.5
123,snoghoj,86,DK,1570153849,81,55.52,9.72,282.15,2.6
124,guilin,20,CN,1570153850,73,25.28,110.29,298.15,2.0
125,talnakh,75,RU,1570153563,86,69.49,88.39,277.15,10.0
126,san cristobal,100,HN,1570153557,94,14.68,-86.92,293.166,1.37
127,khandyga,89,RU,1570153853,65,62.65,135.58,269.946,0.96
128,jucuaran,100,SV,1570153854,97,13.25,-88.25,295.056,0.56
129,rosetta,0,EG,1570153854,71,31.4,30.42,297.496,4.99
130,mayumba,100,GA,1570153855,89,-3.44,10.65,297.586,6.53
131,anchorage,40,US,1570153648,66,61.22,-149.89,284.26,2.6
132,torbay,40,CA,1570153856,74,47.66,-52.73,278.15,5.1
133,banjar,51,ID,1570153857,53,-7.37,108.54,302.266,3.3
134,souillac,90,FR,1570153680,100,45.6,-0.6,288.71,4.1
135,new norfolk,75,AU,1570153841,47,-42.78,147.06,287.15,5.1
136,margate,75,AU,1570153858,47,-43.03,147.26,287.15,5.1
137,esik,75,KZ,1570153859,81,43.36,77.47,280.15,2.52
138,san matias,0,BO,1570153860,60,-16.36,-58.4,301.026,5.29
139,mizdah,0,LY,1570153860,79,31.45,12.98,289.616,3.98
140,bluff,0,AU,1570153657,22,-23.58,149.07,301.086,6.19
141,avera,1,US,1570153787,61,33.19,-82.53,303.15,1.5
142,timra,45,SE,1570153585,89,62.49,17.33,274.15,2.6
143,jamestown,92,AU,1570153866,22,-33.21,138.6,304.456,7.81
144,hithadhoo,81,MV,1570153796,79,-0.6,73.08,301.016,6.56
145,xuddur,3,SO,1570153867,81,4.12,43.89,296.216,4.13
146,sistranda,20,NO,1570153869,69,63.73,8.83,277.15,6.7
147,gamba,0,CN,1570153869,61,28.28,88.52,276.486,1.7
148,nara,20,JP,1570153871,61,34.68,135.8,300.15,8.2
149,bilma,0,NE,1570153769,11,18.69,12.92,302.086,4.15
150,ugoofaaru,100,MV,1570153871,73,5.67,73.0,300.886,3.27
151,honiara,90,SB,1570153854,79,-9.43,159.96,303.15,3.1
152,tres coracoes,0,BR,1570153872,75,-21.7,-45.25,289.016,2.4
153,nantucket,90,US,1570153588,87,41.28,-70.1,285.93,4.6
154,yerbogachen,100,RU,1570153840,96,61.28,108.01,276.916,3.41
155,upernavik,92,GL,1570153743,76,72.79,-56.15,276.206,3.36
156,luanda,100,AO,1570153876,88,-8.83,13.24,295.556,5.15
157,gimli,0,CA,1570153737,78,50.63,-96.99,280.37,1.34
158,leningradskiy,100,RU,1570153877,93,69.38,178.42,273.646,7.17
159,antofagasta,90,CL,1570153879,82,-23.65,-70.4,286.15,7.2
160,olinda,75,AU,1570153710,58,-37.84,145.39,289.26,2.6
161,rocha,100,UY,1570153880,91,-34.48,-54.34,284.746,3.69
162,kununurra,2,AU,1570153881,36,-15.77,128.74,306.15,2.6
163,kirakira,83,SB,1570153881,69,-10.46,161.92,301.576,2.29
164,jiuquan,62,CN,1570153882,57,39.73,98.49,281.766,7.69
165,praia da vitoria,20,PT,1570153883,88,38.73,-27.07,293.15,9.69
166,synya,100,RU,1570153885,83,65.37,58.04,273.996,5.87
167,vila velha,75,BR,1570153885,74,-3.71,-38.6,300.15,6.2
168,sivaki,0,RU,1570153887,31,52.63,126.75,281.226,3.27
169,maceio,40,BR,1570153888,88,-9.67,-35.74,297.15,4.1
170,dikson,100,RU,1570153840,91,73.51,80.55,270.706,10.09
171,poum,100,MK,1570153598,91,41.28,20.71,283.536,1.75
172,dolores,52,UY,1570153889,74,-33.53,-58.22,288.71,3.58
173,itarema,11,BR,1570153647,85,-2.92,-39.92,297.756,4.07
174,jawhar,50,IN,1570153890,86,19.91,73.23,298.996,0.52
175,sao jose da coroa grande,21,BR,1570153891,93,-8.9,-35.15,294.556,2.45
176,laguna,40,BZ,1570153685,83,16.17,-88.94,301.15,0.27
177,kavaratti,78,IN,1570153707,72,10.57,72.64,300.826,1.99
178,pinhao,24,BR,1570153892,99,-25.7,-51.66,289.746,1.59
179,nabire,72,ID,1570153893,55,-3.36,135.5,303.876,1.25
180,moron,91,HT,1570153783,78,18.56,-74.26,300.376,0.52
181,tawang,12,BT,1570153894,63,27.59,91.87,291.436,1.51
182,birjand,0,IR,1570153895,31,32.86,59.22,282.15,4.1
183,kamenka,100,MD,1570153817,82,48.03,28.7,283.696,6.9
184,barrow,100,AR,1570153896,64,-38.31,-60.23,279.426,4.57
185,comodoro rivadavia,0,AR,1570153896,66,-45.87,-67.48,282.15,5.08
186,shushenskoye,0,RU,1570153897,80,53.33,91.95,272.15,1.0
187,tilichiki,0,RU,1570153845,73,60.47,166.1,271.636,2.09
188,khandbari,99,NP,1570153899,78,27.38,87.21,288.296,1.58
189,berlevag,92,NO,1570153676,74,70.86,29.09,277.636,6.7
190,sola,0,TZ,1570153901,62,-3.17,33.8,292.856,4.44
191,maniitsoq,11,GL,1570153885,60,65.42,-52.9,277.726,3.32
192,sitka,96,US,1570153736,60,37.17,-99.65,286.566,4.81
193,rio verde de mato grosso,90,BR,1570153905,61,-18.92,-54.84,300.046,0.99
194,tsevie,20,TG,1570153907,94,6.43,1.21,298.15,2.6
195,te anau,100,NZ,1570153907,85,-45.41,167.72,281.176,4.24
196,cabatuan,68,PH,1570153907,74,16.95,121.67,300.386,1.43
197,zilair,50,RU,1570153908,63,52.23,57.44,280.066,1.62
198,coquimbo,75,CL,1570153909,81,-29.95,-71.34,285.15,4.1
199,lamar,75,US,1570153740,50,38.09,-102.62,287.15,7.2
200,mehamn,100,NO,1570153909,86,71.03,27.85,275.266,4.88
201,geraldton,90,CA,1570153910,74,49.72,-86.95,275.15,3.6
202,copala,0,MX,1570153911,73,16.61,-98.97,301.226,1.94
203,state college,90,US,1570153855,100,40.79,-77.86,292.15,2.37
204,nome,1,US,1570153773,78,30.04,-94.42,301.48,3.1
205,zhicheng,100,CN,1570153913,78,35.04,112.59,293.506,2.02
206,tasiilaq,100,GL,1570153629,93,65.61,-37.64,277.15,14.4
207,concordia,100,AR,1570153913,89,-31.4,-58.02,288.15,2.68
208,udachnyy,90,RU,1570153914,100,66.42,112.4,269.15,2.0
209,richards bay,46,ZA,1570153754,85,-28.77,32.06,294.106,7.92
210,bambous virieux,16,MU,1570153738,65,-20.34,57.76,295.37,0.45
211,karratha,0,AU,1570153702,16,-20.74,116.85,308.226,9.55
212,havre-saint-pierre,90,CA,1570153840,60,50.23,-63.6,277.15,1.5
213,victor harbor,0,AU,1570153917,26,-35.55,138.62,300.37,9.3
214,pangnirtung,0,CA,1570153903,72,66.15,-65.72,268.766,2.04
215,vetrni,90,CZ,1570153919,93,48.77,14.29,278.71,1.0
216,lobito,82,AO,1570153919,87,-12.35,13.55,294.206,2.64
217,tres arroyos,100,AR,1570153920,64,-38.38,-60.28,279.426,4.57
218,viedma,100,AR,1570153790,59,-40.81,-62.99,285.93,8.05
219,alora,20,ZA,1570153921,82,-33.94,18.67,288.71,3.6
220,ust-nera,48,RU,1570153924,62,64.57,143.24,263.546,1.87
221,la ronge,40,CA,1570153712,65,55.1,-105.3,281.15,2.6
222,mount gambier,90,AU,1570153863,81,-37.83,140.78,285.15,2.6
223,hailar,0,CN,1570153926,25,49.2,119.7,281.196,4.31
224,chokurdakh,100,RU,1570153864,91,70.62,147.9,270.876,9.19
225,ginir,68,ET,1570153928,88,7.14,40.71,286.506,1.37
226,cherskiy,100,RU,1570153929,87,68.75,161.3,269.916,1.96
227,buri,81,BR,1570153930,81,-23.8,-48.6,288.076,4.28
228,freeport,0,BS,1570153758,75,26.54,-78.7,299.996,4.83
229,hokitika,100,NZ,1570153932,75,-42.72,170.96,284.036,2.06
230,silver city,75,US,1570153932,49,32.77,-108.28,297.04,2.6
231,kotelnikovo,97,RU,1570153933,90,47.63,43.14,289.226,7.01
232,mbarara,58,UG,1570153935,75,-0.61,30.65,290.226,0.85
233,abu dhabi,0,AE,1570153875,74,24.47,54.37,304.15,2.1
234,la quinta,1,US,1570153938,12,33.68,-116.3,305.15,5.7
235,carnarvon,0,ZA,1570153938,51,-30.97,22.13,278.366,0.91
236,kiama,75,AU,1570153939,68,-34.67,150.86,297.59,7.7
237,nevers,90,FR,1570153939,81,46.99,3.16,285.15,4.1
238,korop,100,UA,1570153940,92,51.57,32.95,283.886,5.0
239,hofn,100,IS,1570153658,99,64.25,-15.21,272.876,2.63
240,muisne,100,EC,1570153942,86,0.61,-80.02,296.656,6.56
241,kinsale,75,IE,1570153942,76,51.71,-8.52,285.15,10.8
242,georgiyevka,16,RU,1570153944,84,52.25,40.45,285.636,5.19
243,dukat,100,AL,1570153945,85,40.25,19.57,291.086,1.52
244,saint-pierre,100,FR,1570153755,87,48.95,4.24,283.15,5.1
245,severo-yeniseyskiy,97,RU,1570153947,81,60.37,93.04,277.306,6.45
246,neftcala,11,AZ,1570153948,78,39.37,49.25,291.016,1.06
247,namie,75,JP,1570153949,88,37.52,140.86,295.15,5.7
248,caronport,0,CA,1570153949,82,50.46,-105.81,280.37,1.34
249,hirara,40,JP,1570153950,74,24.8,125.28,301.15,4.6
250,raudeberg,0,NO,1570153950,53,61.99,5.14,283.15,6.7
251,sault sainte marie,90,CA,1570153951,93,46.49,-84.36,280.15,2.6
252,batagay-alyta,100,RU,1570153952,72,67.8,130.41,262.046,1.95
253,moba,35,CD,1570153953,67,-7.04,29.77,292.766,2.82
254,byron bay,0,AU,1570153721,56,-28.65,153.62,301.15,7.7
255,nikolskoye,90,RU,1570153954,86,59.7,30.79,277.15,3.0
256,amzya,92,RU,1570153954,93,56.24,54.39,283.296,3.63
257,alofi,97,NU,1570153955,83,-19.06,-169.92,298.15,6.2
258,acapulco,40,MX,1570153955,78,16.86,-99.88,300.15,1.4
259,kyren,0,RU,1570153956,63,51.68,102.13,273.996,1.53
260,sabang,1,PH,1570153876,81,13.8,121.11,302.04,1.34
261,vanimo,79,PG,1570153956,66,-2.67,141.3,301.456,0.95
262,usinsk,98,RU,1570153957,96,66.0,57.56,273.966,10.72
263,coihaique,0,CL,1570153877,60,-45.58,-72.07,279.15,1.5
264,guasdualito,75,VE,1570153958,100,7.24,-70.73,296.15,2.1
265,svetlogorsk,20,RU,1570153959,70,53.14,59.15,281.15,3.0
266,luocheng,0,CN,1570153960,33,28.29,114.55,305.956,1.74
267,tigzirt,2,DZ,1570153724,73,36.57,4.2,286.696,0.54
268,newport,99,GB,1570153684,82,51.59,-3.0,287.59,7.2
269,watsa,0,CD,1570153966,97,3.04,29.53,290.046,0.78
270,sorland,0,NO,1570153966,57,67.67,12.69,279.476,5.49
271,perigueux,0,FR,1570153967,93,45.18,0.72,285.37,2.6
272,sim,12,BR,1570153967,98,-12.25,-38.93,293.276,1.36
273,hojai,22,IN,1570153968,80,26.0,92.85,299.946,0.78
274,xianyang,90,CN,1570153969,93,34.31,108.72,294.26,3.0
275,coahuayana,92,MX,1570153970,91,18.62,-100.35,295.716,1.18
276,pidhorodne,40,UA,1570153970,93,48.57,35.1,285.15,3.0
277,kruisfontein,20,ZA,1570153971,87,-34.0,24.73,283.416,1.61
278,tessalit,0,ML,1570153972,10,20.2,1.01,303.086,4.85
279,bilibino,84,RU,1570153972,94,68.06,166.44,261.756,1.26
280,libreville,20,GA,1570153972,83,0.39,9.45,299.15,3.1
281,takeo,40,JP,1570153974,65,33.2,130.02,304.82,3.6
282,berezovyy,0,RU,1570153974,28,51.67,135.7,281.536,0.94
283,pevek,100,RU,1570153975,74,69.7,170.27,273.456,8.34
284,smithers,90,CA,1570153950,93,54.78,-127.17,281.15,1.0
285,puerto escondido,90,MX,1570153977,65,15.86,-97.07,298.15,2.1
286,vardo,90,US,1570153977,88,39.62,-77.74,295.93,0.79
287,amapa,75,HN,1570153733,88,15.09,-87.97,299.15,1.0
288,rondonopolis,57,BR,1570153979,71,-16.46,-54.64,297.536,0.82
289,mitchelstown,75,IE,1570153979,76,52.27,-8.27,287.15,10.8
290,allapalli,78,IN,1570153980,84,19.43,80.06,299.886,0.3
291,la primavera,41,AR,1570153981,47,-32.92,-68.67,286.15,6.7
292,ostrovnoy,99,RU,1570153982,85,68.05,39.51,273.606,4.85
293,gushikawa,20,JP,1570153984,70,26.35,127.87,302.15,5.7
294,robat karim,40,IR,1570153984,34,35.49,51.08,293.15,2.1
295,along,9,IN,1570153986,66,28.17,94.8,292.676,1.92
296,wakkanai,75,JP,1570153986,87,45.41,141.67,286.15,8.7
297,varzea da palma,0,BR,1570153780,54,-17.6,-44.73,296.156,2.55
298,praya,20,ID,1570153792,58,-8.71,116.27,303.15,5.1
299,tiksi,100,RU,1570153921,87,71.64,128.87,269.126,11.95
300,keetmanshoop,0,NA,1570153989,52,-26.57,18.15,289.15,4.1
301,college,90,US,1570153910,100,64.86,-147.8,279.15,0.97
302,ambon,90,FR,1570153991,100,47.55,-2.56,289.15,3.6
303,gwadar,100,PK,1570153992,77,25.12,62.33,300.916,2.55
304,paamiut,100,GL,1570153993,69,61.99,-49.67,279.116,4.65
305,czersk,38,PL,1570153993,10,53.8,17.98,280.93,1.54
306,colombo,20,BR,1570153995,87,-25.29,-49.22,289.26,3.6
307,gravelbourg,42,CA,1570153995,71,49.88,-106.56,280.586,6.92
308,flin flon,19,CA,1570153996,85,54.77,-101.88,276.936,2.66
309,atar,12,MR,1570153952,17,20.52,-13.05,303.416,5.35
310,lata,91,IN,1570153997,67,30.78,78.62,277.276,2.08
311,ancud,0,CL,1570153897,81,-41.87,-73.83,279.15,3.6
312,ha giang,95,VN,1570153999,83,22.83,104.99,294.696,1.25
313,isangel,75,VU,1570153999,57,-19.55,169.27,299.15,6.2
314,dwarka,40,IN,1570154000,88,28.58,77.04,300.93,2.1
315,ahipara,0,NZ,1570154000,72,-35.17,173.16,292.59,0.89
316,andapa,48,MG,1570154001,96,-14.66,49.65,289.466,1.13
317,camacha,40,PT,1570154001,77,33.08,-16.33,294.15,2.1
318,san policarpo,2,PH,1570154003,61,12.18,125.51,303.376,2.92
319,mufulira,2,ZM,1570154005,91,-12.55,28.24,288.546,2.34
320,lakes entrance,100,AU,1570154006,60,-37.88,147.99,291.48,1.79
321,barraute,75,CA,1570154006,93,48.43,-77.63,276.15,3.6
322,evensk,3,RU,1570153731,33,61.92,159.24,274.666,1.38
323,hagere selam,100,ET,1570154009,94,6.48,38.52,284.886,2.33
324,abu kamal,0,SY,1570153873,62,34.45,40.92,291.086,4.74
325,shelburne,90,CA,1570153836,100,44.08,-80.2,285.37,1.0
326,port lincoln,100,AU,1570154010,85,-34.72,135.86,288.316,9.98
327,henties bay,0,NA,1570153908,87,-22.12,14.28,290.37,2.68
328,goodyear,1,US,1570154012,35,33.44,-112.36,306.15,2.6
329,pyapon,100,MM,1570154013,69,16.29,95.68,302.526,1.79
330,mayo,75,CA,1570153782,81,63.59,-135.9,282.15,2.1
331,salalah,40,OM,1570154015,88,17.01,54.1,299.15,1.5
332,chara,40,GR,1570154015,68,39.42,22.43,291.15,3.6
333,baykit,100,RU,1570154016,92,61.68,96.39,276.196,4.18
334,kalevala,100,FI,1570154017,80,64.12,29.58,271.986,3.68
335,kodiak,1,US,1570153984,81,39.95,-94.76,285.15,2.6
336,naze,100,NG,1570153834,96,5.43,7.07,295.506,1.05
337,saldanha,0,PT,1570154019,91,41.42,-6.55,287.956,0.87
338,lautaro,75,CL,1570154019,81,-38.53,-72.44,282.15,2.6
339,rancho palos verdes,5,US,1570153831,56,33.75,-118.37,296.15,4.6
340,kiruna,20,SE,1570154022,86,67.86,20.23,271.15,2.03
341,bilokurakyne,0,UA,1570154023,92,49.53,38.74,285.966,3.48
342,beringovskiy,0,RU,1570154026,60,63.05,179.32,271.296,8.65
343,zlobin,0,HR,1570154027,62,45.29,14.65,287.59,1.0
344,los llanos de aridane,40,ES,1570153969,88,28.66,-17.92,298.15,5.1
345,shimoda,75,JP,1570154028,88,34.7,138.93,299.82,8.2
346,saint anthony,1,US,1570154029,47,43.97,-111.68,286.15,1.5
347,bathsheba,40,BB,1570154030,78,13.22,-59.52,301.15,3.6
348,porto,90,PT,1570153781,93,41.15,-8.61,291.48,1.0
349,sobradinho,100,BR,1570154031,99,-29.41,-53.03,288.556,1.55
350,turmalina,0,BR,1570153776,82,-17.29,-42.73,290.546,2.08
351,genhe,3,CN,1570154033,28,50.78,121.52,278.596,3.9
352,wanlaweyn,74,SO,1570154035,83,2.62,44.89,298.386,3.27
353,hamilton,40,CA,1570153818,93,43.26,-79.87,287.04,4.1
354,kaeo,14,NZ,1570154037,72,-35.1,173.78,292.59,0.89
355,roma,0,IT,1570153801,58,41.89,12.48,288.15,5.7
356,sur,0,OM,1570154038,58,22.57,59.53,302.456,4.62
357,sosnovo-ozerskoye,9,RU,1570154038,50,52.53,111.54,277.046,5.68
358,sao felix do xingu,2,BR,1570153756,84,-6.64,-51.99,295.716,0.58
359,constitucion,75,MX,1570153762,49,23.99,-104.67,293.71,2.6
360,batagay,98,RU,1570154041,47,67.65,134.64,270.056,2.86
361,hambantota,20,LK,1570153855,100,6.12,81.12,297.15,1.5
362,nguru,68,NG,1570154043,63,12.88,10.45,300.626,2.35
363,faya,0,SA,1570154045,36,18.39,42.45,291.15,1.35
364,palmer,0,AU,1570154046,26,-34.85,139.16,300.37,9.3
365,touros,40,BR,1570153865,78,-5.2,-35.46,299.15,5.7
366,orocue,28,CO,1570154048,92,4.79,-71.34,295.236,1.06
367,orlik,75,PL,1570154048,93,53.95,17.74,280.15,3.1
368,kokino,75,MK,1570154049,76,42.26,21.95,285.15,3.6
369,coxim,28,BR,1570154049,62,-18.5,-54.75,300.146,0.48
370,chervone,74,UA,1570154050,93,51.1,34.1,285.396,2.6
371,turan,0,RU,1570154051,40,52.15,93.92,275.446,1.72
372,denpasar,20,ID,1570154003,83,-8.65,115.22,300.15,3.1
373,aromashevo,100,RU,1570154052,94,56.86,68.64,280.076,3.96
374,poyarkovo,0,RU,1570154052,36,49.62,128.65,281.096,4.39
375,rio gallegos,0,AR,1570154054,56,-51.62,-69.22,280.15,4.6
376,minuri,16,PH,1570154054,73,16.54,121.86,300.296,2.23
377,port hedland,0,AU,1570154055,14,-20.31,118.58,310.15,5.7
378,anderson,1,US,1570154055,57,34.51,-82.65,301.15,1.45
379,yuzhno-kurilsk,100,RU,1570154056,84,44.03,145.86,288.456,3.6
380,staryy nadym,29,RU,1570154056,83,65.61,72.68,274.366,7.39
381,emba,0,CY,1570154057,77,34.81,32.42,293.15,4.1
382,lagoa,0,PT,1570154057,68,37.14,-8.45,294.15,4.1
383,juybar,0,IR,1570154058,88,36.64,52.91,291.15,1.33
384,sakaiminato,75,JP,1570154058,64,35.55,133.23,297.15,3.6
385,santiago del estero,95,AR,1570154059,85,-27.8,-64.26,284.976,3.14
386,san rafael,71,AR,1570154059,67,-34.61,-68.33,281.616,6.14
387,gastello,100,RU,1570154061,95,49.1,142.94,274.586,3.35
388,marzuq,0,YE,1570154061,59,14.4,46.47,294.076,0.44
389,ridgecrest,1,US,1570154061,10,35.62,-117.67,300.15,6.7
390,ballina,100,IE,1570154063,94,54.11,-9.15,287.04,8.05
391,sinnamary,68,GF,1570154065,83,5.38,-52.96,300.576,7.58
392,iberia,10,PE,1570154066,96,-11.41,-69.49,294.656,0.93
393,mangai,100,CD,1570154066,99,-4.07,19.59,294.686,0.78
394,sao filipe,100,CV,1570154067,83,14.9,-24.5,299.136,1.53
395,bandarbeyla,100,SO,1570154067,80,9.49,50.81,297.666,2.28
396,chabahar,32,IR,1570154068,79,25.29,60.65,299.936,2.44
397,umtata,83,ZA,1570154069,67,-31.59,28.78,290.15,3.1
398,kviteseid,100,NO,1570154069,98,59.4,8.49,272.716,1.43
399,santa fe,100,AR,1570154070,80,-31.62,-60.7,288.71,4.83
400,yanam,75,IN,1570154072,88,16.73,82.22,300.15,2.63
401,bourail,40,NC,1570154072,48,-21.57,165.5,296.866,3.26
402,el porvenir,100,HN,1570154073,69,15.75,-86.9,302.326,2.69
403,albanel,90,CA,1570154074,77,48.88,-72.44,278.15,1.0
404,aksay,29,KZ,1570154074,49,51.17,53.01,284.236,4.76
405,lorengau,62,PG,1570154075,77,-2.02,147.27,301.396,2.9
406,okha,12,RU,1570154075,57,53.59,142.95,279.276,8.7
407,sioux lookout,90,CA,1570154077,86,50.1,-91.92,277.15,1.5
408,kaitangata,100,NZ,1570154004,42,-46.28,169.85,290.37,4.02
409,kopayhorod,100,UA,1570154078,80,48.86,27.8,281.226,4.65
410,thunder bay,75,CA,1570153796,86,48.41,-89.26,277.15,2.1
411,comarapa,100,BO,1570154080,71,-17.91,-64.53,289.716,1.87
412,guerrero negro,0,MX,1570154080,78,27.97,-114.04,292.956,6.15
413,nautanwa,0,NP,1570154081,75,27.43,83.42,299.816,0.67
414,belle fourche,1,US,1570154082,66,44.67,-103.85,283.15,5.7
415,yinchuan,51,CN,1570154000,66,38.48,106.21,283.71,2.92
416,eyl,28,SO,1570154085,91,7.98,49.82,296.356,1.46
417,carballo,75,ES,1570154086,93,43.21,-8.69,291.48,2.51
418,chibombo,0,ZM,1570154088,90,-14.68,28.09,289.756,3.06
419,deulgaon raja,89,IN,1570154089,77,20.02,76.04,298.146,2.54
420,yizheng,7,CN,1570154089,78,24.67,103.43,297.04,2.04
421,tabuk,45,PH,1570154090,83,17.41,121.44,296.266,0.6
422,kropotkin,0,RU,1570154092,72,45.43,40.58,290.93,1.63
423,piracaia,20,BR,1570154093,82,-23.05,-46.36,291.15,2.1
424,muros,75,ES,1570154094,100,42.77,-9.06,290.37,0.5
425,longyearbyen,75,NO,1570153970,86,78.22,15.63,274.15,2.1
426,port-gentil,100,GA,1570153927,82,-0.72,8.78,299.036,7.22
427,rybinsk,100,RU,1570154096,87,58.05,38.83,284.946,4.79
428,keti bandar,36,PK,1570154096,78,24.14,67.45,300.986,6.9
429,galle,100,GN,1570154097,98,10.08,-12.83,294.136,0.19
430,picos,88,BR,1570154098,35,-7.08,-41.47,301.266,1.26
431,morondava,0,MG,1570154099,74,-20.3,44.28,298.756,4.56
432,waingapu,0,ID,1570154099,34,-9.65,120.26,304.196,7.32
433,okahandja,0,NA,1570154100,20,-21.98,16.91,288.15,2.17
434,oistins,40,BB,1570154101,78,13.07,-59.53,301.15,3.6
435,port-cartier,20,CA,1570154030,69,50.03,-66.88,274.15,3.1
436,polson,90,US,1570154101,53,47.69,-114.16,284.15,1.5
437,sisimiut,50,GL,1570154102,63,66.94,-53.67,278.696,3.14
438,myshkin,100,RU,1570154103,91,57.78,38.45,284.346,4.35
439,cockburn town,100,TC,1570154105,74,21.46,-71.14,301.816,2.91
440,lavrentiya,100,RU,1570154107,97,65.58,-170.99,276.286,4.52
441,esperance,90,AU,1570154108,87,-33.86,121.89,287.15,6.2
442,gornyak,0,KZ,1570154110,27,51.0,81.46,281.666,1.59
443,kalakamati,12,BW,1570154110,74,-20.59,27.31,289.576,3.67
444,biloela,0,AU,1570154111,22,-24.4,150.51,301.236,4.74
445,beberibe,75,BR,1570154112,74,-4.18,-38.13,300.15,6.2
446,kita,20,JP,1570154113,83,35.76,139.74,300.93,9.3
447,saint-joseph,0,FR,1570154113,81,43.56,6.97,289.15,1.0
448,jumla,0,NP,1570154114,69,29.28,82.18,287.056,0.74
449,takoradi,100,GH,1570154114,97,4.89,-1.75,296.226,1.89
450,wanaka,92,NZ,1570154115,41,-44.7,169.14,289.26,2.68
451,balvi,89,LV,1570154115,97,57.13,27.27,275.906,1.82
452,san rafael del sur,40,NI,1570154116,88,11.85,-86.44,299.15,2.1
453,sobolevo,100,RU,1570154117,91,54.43,31.9,281.256,5.32
454,talcahuano,0,CL,1570153884,76,-36.72,-73.12,283.15,3.6
455,kailua,90,US,1570153903,69,21.39,-157.74,304.15,2.1
456,egvekinot,100,RU,1570154119,96,66.32,-179.17,271.196,2.73
457,dunedin,100,NZ,1570153959,55,-45.87,170.5,288.71,6.71
458,iwanai,100,JP,1570154121,91,42.97,140.51,289.546,3.22
459,traverse city,90,US,1570154067,82,44.76,-85.62,287.15,2.6
460,berdigestyakh,100,RU,1570153993,81,62.1,126.7,272.356,3.0
461,kungurtug,0,RU,1570153852,38,50.6,97.53,277.286,0.3
462,oxford,1,US,1570154126,78,33.61,-85.83,300.37,1.81
463,sangar,100,RU,1570154128,51,63.92,127.47,270.376,4.62
464,jasper,1,US,1570153928,73,33.83,-87.28,303.15,1.96
465,kahului,20,US,1570154128,62,20.89,-156.47,302.59,9.3
466,slavsk,100,RU,1570154129,86,55.05,21.68,281.256,3.29
467,san jeronimo,100,PE,1570154130,80,-13.65,-73.37,283.266,2.65
468,bonfim,0,GY,1570154132,64,3.36,-59.84,300.796,2.09
469,fort nelson,75,CA,1570154132,67,58.81,-122.69,288.15,2.6
470,qasigiannguit,100,GL,1570154132,31,68.82,-51.19,282.15,8.2
471,puerto madryn,100,AR,1570154134,40,-42.77,-65.04,285.556,8.03
472,mareeba,90,AU,1570154135,83,-16.99,145.42,297.59,3.1
473,vila do maio,75,CV,1570154135,83,15.13,-23.22,300.15,4.1
474,chapais,90,CA,1570154125,69,49.78,-74.86,274.15,2.1
475,dong hoi,87,VN,1570154136,63,17.48,106.6,302.226,1.88
476,grand gaube,3,MU,1570154136,65,-20.01,57.66,295.37,5.77
477,bonthe,100,SL,1570154137,88,7.53,-12.5,298.056,1.32
478,nikolayevka,3,RU,1570154137,69,46.73,38.57,291.226,5.24
479,goragorskiy,90,RU,1570154138,100,43.5,45.08,286.15,1.0
480,katsuura,20,JP,1570154138,54,33.93,134.5,300.93,6.2
481,key west,90,US,1570154139,93,47.93,-96.78,281.15,1.11
482,turukhansk,100,RU,1570154139,97,65.8,87.96,280.086,5.57
483,zhangye,0,CN,1570154141,51,38.94,100.46,285.786,2.5
484,ulaanbaatar,0,MN,1570154142,74,47.92,106.92,271.15,1.87
485,rovaniemi,90,FI,1570154142,90,66.5,25.72,273.15,3.6
486,dalvik,100,SE,1570154143,87,57.79,14.13,275.93,0.5
487,ushtobe,53,KZ,1570154145,44,45.25,77.98,285.286,4.86
488,iqaluit,40,CA,1570154146,86,63.75,-68.52,274.15,8.7
489,pisco,0,PE,1570154147,82,-13.71,-76.2,290.15,8.2
490,praia,0,BR,1570154148,49,-20.25,-43.81,295.15,4.6
491,sibiti,100,CG,1570154148,96,-3.69,13.35,294.966,1.37
492,kurchum,0,KZ,1570154149,29,48.57,83.65,283.586,1.02
493,nokaneng,0,BW,1570154150,45,-19.66,22.19,293.386,4.32
494,sao joao da barra,27,BR,1570154150,91,-21.64,-41.05,293.466,1.76
495,torrevieja,0,ES,1570154151,77,37.98,-0.68,293.15,3.1
496,srednekolymsk,100,RU,1570154151,85,67.46,153.71,269.886,8.45
497,invermere,100,CA,1570154152,97,50.51,-116.03,270.106,2.24
498,omboue,100,GA,1570154153,81,-1.57,9.26,298.576,5.64
499,vostok,100,RU,1570154154,96,46.45,135.83,277.076,1.87
500,mitu,0,IR,1570154154,68,36.2,46.09,281.066,1.29
501,araouane,0,ML,1570153906,14,18.9,-3.53,305.536,2.26
502,cayenne,0,GF,1570154156,83,4.94,-52.33,299.15,1.5
503,murmino,99,RU,1570154156,76,54.6,40.05,285.936,4.38
504,kodinsk,100,RU,1570154157,86,58.6,99.18,278.206,4.39
505,gainesville,1,US,1570154131,88,29.65,-82.33,298.71,2.1
506,shawnee,1,US,1570154158,82,35.33,-96.93,292.59,4.6
507,barrhead,1,CA,1570154160,57,54.12,-114.4,282.15,2.6
508,clarksburg,90,US,1570154160,94,39.24,-77.28,296.48,2.6
509,urcos,40,PE,1570154161,47,-13.69,-71.62,286.15,1.0
510,havoysund,75,NO,1570154161,86,71.0,24.66,274.15,3.6
511,talaya,0,RU,1570154162,69,55.79,84.89,277.15,5.0
512,alice springs,0,AU,1570154164,11,-23.7,133.88,306.15,7.7
513,kotma,0,IN,1570154165,82,23.2,81.98,297.076,1.99
514,skender vakuf,0,BA,1570154166,87,44.49,17.38,283.15,1.0
515,asosa,100,ET,1570154168,92,10.07,34.53,290.636,1.63
516,cabedelo,75,BR,1570153976,83,-6.97,-34.84,298.15,4.6
517,tandlianwala,100,PK,1570154170,46,31.03,73.13,299.616,0.62
518,adre,89,TD,1570154171,64,13.47,22.2,296.986,1.16
519,mangrol,60,IN,1570154171,88,25.33,76.51,297.15,0.5
520,otjiwarongo,66,NA,1570154172,21,-20.46,16.65,291.566,5.37
521,tomatlan,100,MX,1570154172,80,19.93,-105.25,299.726,1.79
522,narsaq,100,GL,1570154174,29,60.91,-46.05,283.15,7.7
523,pemba,96,MZ,1570154174,84,-12.97,40.52,297.516,5.99
524,lampazos de naranjo,11,MX,1570154175,57,27.02,-100.51,299.236,2.58
525,port hardy,90,CA,1570153996,93,50.7,-127.42,283.15,4.81
526,ishigaki,20,JP,1570154176,83,24.34,124.16,301.15,5.1
527,najran,0,SA,1570154157,27,17.54,44.22,299.15,1.14
528,westport,90,US,1570154079,93,41.14,-73.36,289.26,2.1
529,soe,52,EE,1570154178,93,57.91,26.05,277.15,2.1
530,jinxiang,100,CN,1570154179,40,35.07,116.31,297.126,1.09
531,goderich,54,CA,1570154180,93,43.74,-81.71,288.71,3.58
532,lasa,0,CY,1570153910,72,34.92,32.53,293.15,3.6
533,khotyn,100,UA,1570154181,82,48.51,26.49,281.48,0.45
534,latur,100,IN,1570154181,82,18.4,76.56,297.356,1.53
535,necochea,100,AR,1570153999,71,-38.55,-58.74,280.93,1.79
536,mackenzie,90,CA,1570153917,70,55.34,-123.09,282.15,3.6
537,yulara,0,AU,1570154184,9,-25.24,130.99,306.15,7.2
538,manokwari,85,ID,1570154108,77,-0.87,134.08,298.946,2.01
539,zhoucheng,23,CN,1570154186,78,31.35,119.33,299.15,2.0
540,pangody,67,RU,1570154187,81,65.85,74.49,274.346,9.1
541,buraydah,0,SA,1570154189,34,26.33,43.97,300.15,3.1
542,palas,40,ID,1570154189,100,0.57,101.39,297.15,1.22
543,aykhal,90,RU,1570154189,100,65.95,111.51,269.15,2.0
544,awjilah,0,LY,1570154074,22,29.14,21.3,298.806,6.36
545,carrickfergus,100,GB,1570154191,93,54.72,-5.81,285.37,3.1
546,kangaatsiaq,67,GL,1570154192,62,68.31,-53.46,278.806,7.4
547,lompoc,1,US,1570154193,72,34.64,-120.46,290.37,6.2
548,mago,11,RU,1570154194,40,53.27,140.15,280.196,4.87
549,chino valley,1,US,1570154195,31,34.76,-112.45,296.15,3.6
550,mitchell,40,US,1570154195,87,43.71,-98.03,279.15,3.1
551,cap malheureux,3,MU,1570154196,65,-19.98,57.61,295.37,5.77
552,troyes,0,FR,1570154197,76,48.3,4.07,283.15,5.7
553,lake cowichan,75,CA,1570154197,71,48.82,-124.05,286.15,2.1
554,broome,100,GB,1570154199,93,52.47,1.45,285.93,4.6
555,atbasar,50,KZ,1570154201,42,51.81,68.36,280.906,3.54
556,jubbal,40,IN,1570154201,77,31.11,77.67,289.15,0.24
557,barranca,93,PE,1570154202,91,-10.75,-77.76,289.496,7.66
